{"version":"1.2.9","files":[{"loadFromURL":false,"label":"Untitled","id":0,"autoFields":[],"fields":[{"key":"Location","description":"Location","cardinality":33,"type":"text","blanks":0,"uniques":[],"uniqueKey":true,"special":[",","-"],"unassignedSpecialChars":[",","-"],"countBy":true,"errors":[],"$$hashKey":"object:116","countable":true,"countDescription":"Untitled"},{"key":"Latitude","description":"Latitude","cardinality":32,"type":"number","blanks":0,"uniques":[],"uniqueKey":false,"special":[],"unassignedSpecialChars":[],"countBy":false,"errors":[],"descriptiveField":"Location","$$hashKey":"object:117"},{"key":"Longitude","description":"Longitude","cardinality":32,"type":"number","blanks":0,"uniques":[],"uniqueKey":false,"special":["-"],"unassignedSpecialChars":["-"],"countBy":false,"errors":[],"descriptiveField":"Location","$$hashKey":"object:118"},{"key":"First Words","description":"First Words","cardinality":33,"type":"text","blanks":0,"uniques":[],"uniqueKey":true,"special":["-",","],"unassignedSpecialChars":["-",","],"countBy":false,"errors":[],"descriptiveField":"Location","$$hashKey":"object:119"},{"key":"Date ","description":"Date ","cardinality":33,"type":"text","blanks":0,"uniques":[],"uniqueKey":true,"special":["/"],"unassignedSpecialChars":["/"],"countBy":false,"errors":[],"descriptiveField":"Location","$$hashKey":"object:120"},{"key":"Borough","description":"Borough","cardinality":5,"type":"text","blanks":0,"uniques":[],"uniqueKey":false,"special":[],"unassignedSpecialChars":[],"countBy":false,"errors":[],"descriptiveField":"Location","$$hashKey":"object:121"},{"key":"Kind of Place","description":"Kind of Place","cardinality":8,"type":"text","blanks":0,"uniques":[],"uniqueKey":false,"special":[],"unassignedSpecialChars":[],"countBy":false,"errors":[],"descriptiveField":"Location","$$hashKey":"object:122"}],"data":[{"Location":"Brooklyn Metrotech Office","Latitude":"40.693117","Longitude":"-73.986238","First Words":"as big as cats","Date ":"11/11/1992","Borough":"Brooklyn","Kind of Place":"Municipal"},{"Location":"Bryant Park","Latitude":"40.753526","Longitude":"-73.982967","First Words":"They're survivors","Date ":"11/2/1987","Borough":"Manhattan","Kind of Place":"Park"},{"Location":"Willow Pond","Latitude":"40.638474","Longitude":"-73.69087","First Words":"fairly extensive infestation","Date ":"12/29/1985","Borough":"Metro","Kind of Place":"Park"},{"Location":"Kent Ave and N Fifth Ave","Latitude":"40.719388","Longitude":"-73.962849","First Words":"increases","Date ":"11/18/1980","Borough":"Brooklyn","Kind of Place":"Residential"},{"Location":"79th and Fifth Central Park","Latitude":"40.777173","Longitude":"-73.963754","First Words":"hundreds of large grayish brown rats","Date ":"1/4/1975","Borough":"Manhattan","Kind of Place":"Park"},{"Location":"Flatlands section of Brooklyn","Latitude":"40.621245","Longitude":"-73.935309","First Words":"growing menace of rats","Date ":"8/21/1969","Borough":"Brooklyn","Kind of Place":"Residential"},{"Location":"Foster Avenue between 55th and 58th Streets","Latitude":"40.638176","Longitude":"-73.922442","First Words":"overrun by rats","Date ":"8/19/1969","Borough":"Brooklyn","Kind of Place":"Residential "},{"Location":"Military Park","Latitude":"40.739850","Longitude":"-74.16919","First Words":"hundreds of rats","Date ":"7/9/1969","Borough":"Metro","Kind of Place":"Park"},{"Location":"21st and 22nd Streets between Eighth and Ninth Avenues","Latitude":"40.745001","Longitude":"-74.000851","First Words":"Starve-a-Rat Cleanup Day","Date ":"4/10/1969","Borough":"Manhattan","Kind of Place":"Residential"},{"Location":"a traffic island in a posh section of Park Avenue","Latitude":"40.793394","Longitude":"-73.94736","First Words":"colony of rats","Date ":"1/8/1969","Borough":"Manhattan","Kind of Place":"Residential"},{"Location":"Atlantic City's North Side area","Latitude":"39.369314","Longitude":"-74.413427","First Words":"rat infestation","Date ":"8/26/1967","Borough":"Metro","Kind of Place":"Residenial"},{"Location":"East 121 Street","Latitude":"40.801740","Longitude":"-73.938677","First Words":"a scruffy gray-brown creature","Date ":"8/6/1967","Borough":"Manhattan","Kind of Place":"Residential"},{"Location":"2117 Eighth Avenue, near 115th Street","Latitude":"40.803750","Longitude":"-73.956419","First Words":"vicious rats","Date ":"8/5/1967","Borough":"Manhattan","Kind of Place":"Residential"},{"Location":"center of Brooklyn's Bedford-Stuyvessant","Latitude":"40.688699","Longitude":"-73.941355","First Words":"moves with a furtiveness that proves beyond doubt that he is evil","Date ":"10/18/1964","Borough":"Brooklyn","Kind of Place":"Residential"},{"Location":"Ozone Park area of Queens","Latitude":"40.678859","Longitude":"-73.850825","First Words":"a rat that later died of rabies","Date ":"3/3/1953","Borough":"Queens","Kind of Place":"Park"},{"Location":"Aqueduct Race Track","Latitude":"40.677980","Longitude":"-73.833585","First Words":"she thought it was a squirrell ","Date ":"2/28/1953","Borough":"Queens","Kind of Place":"Park"},{"Location":"28 East 111th street","Latitude":"40.687272","Longitude":"-73.832586","First Words":"buildings have been found infested with rats","Date ":"9/24/1949","Borough":"Manhattan","Kind of Place":"Residential"},{"Location":"area bounded by 110th and 120th and by Fifth and Morningside","Latitude":"40.801793","Longitude":"-73.947114","First Words":"population of 15,000,000","Date ":"4/2/1949","Borough":"Manhattan","Kind of Place":"Residential"},{"Location":"area between Lenox and Park Ave from 111th to 120th streets","Latitude":"40.802544","Longitude":"-73.942901","First Words":"relatively high number of rat bites","Date ":"12/1/1948","Borough":"Manhattan","Kind of Place":"Residential"},{"Location":"Mott Haven section of the Bronx","Latitude":"40.810295","Longitude":"-73.92174","First Words":"the current menace from rodents","Date ":"10/23/1948","Borough":"Bronx","Kind of Place":"Street"},{"Location":"African Plains exhibit in Bronx Zoo","Latitude":"40.850851","Longitude":"-73.877019","First Words":"25 cents a head for shooting rats","Date ":"2/9/1947","Borough":"Bronx","Kind of Place":"Zoo"},{"Location":"1103 Lexington Avenue","Latitude":"40.773904","Longitude":"-73.95954","First Words":"they're this big. [he held up his hands a foot apart]","Date ":"8/31/1946","Borough":"Manhattan","Kind of Place":"Food"},{"Location":"Verplanck Point","Latitude":"41.249454","Longitude":"-73.96233","First Words":"horde of rats","Date ":"6/22/1946","Borough":"Metro","Kind of Place":"Residential"},{"Location":"Police Headquarters 240 Centre Street","Latitude":"40.720384","Longitude":"-73.997946","First Words":"several large and ferocious rats","Date ":"11/1/1943","Borough":"Manhattan","Kind of Place":"Municipal"},{"Location":"Central Park at Fifty-ninth street","Latitude":"40.764392","Longitude":"-73.972977","First Words":"seen scurrying across roadways and among bushes","Date ":"9/24/1942","Borough":"Manhattan","Kind of Place":"Park"},{"Location":"waterfront of Riker's Island","Latitude":"40.797844","Longitude":"-73.886634","First Words":"the carcases of 2,000 rats","Date ":"4/2/1933","Borough":"Bronx","Kind of Place":"Dump"},{"Location":"Rikers Island ","Latitude":"40.795991","Longitude":"-73.889215","First Words":"large proportions","Date ":"5/26/1931","Borough":"Bronx","Kind of Place":"Dump"},{"Location":"1785 Madison Avenue five story building","Latitude":"40.801155","Longitude":"-73.944106","First Words":"corporation permitted rats to infest the premesis","Date ":"7/18/1928","Borough":"Manhattan","Kind of Place":"Residential"},{"Location":"60 suswick street in Ravenswood and Astoria sections","Latitude":"40.763434","Longitude":"-73.924191","First Words":"plague of rats","Date ":"3/26/1922","Borough":"Queens","Kind of Place":"Residential"},{"Location":"160 Twelfth street Long Island City","Latitude":"40.760507","Longitude":"-73.939513","First Words":"savage vermin","Date ":"2/18/1922","Borough":"Queens","Kind of Place":"Residential"},{"Location":"New York Zoological Gardens","Latitude":"40.853983","Longitude":"-73.880957","First Words":"a great rat came out of the shrubbery","Date ":"11/17/1921","Borough":"Bronx","Kind of Place":"Zoo"},{"Location":"111 East 115th St","Latitude":"40.798776","Longitude":"-73.943063","First Words":"a large rat","Date ":"6/12/1919","Borough":"Manhattan","Kind of Place":"Residential"},{"Location":"four block area bounded by 111th 112th Lenox and Manhattan","Latitude":"40.798776","Longitude":"-73.943063","First Words":"a large gray rat","Date ":"12/27/1970","Borough":"Manhattan","Kind of Place":"Residential"}],"uniqueId":0,"$$hashKey":"object:110"}],"links":[],"layout":"geo","metadata":{"title":null,"author":null,"date":null,"description":null},"vis":[{"type":"palladioFilters","importJson":{"facets":[],"timelines":[],"partimes":[],"timesteps":[]}},{"type":"graphView","importJson":{"showLinks":true,"showLabels":true,"aggregateKey":null,"aggregationType":"COUNT","nodeSize":false,"highlightSource":false,"highlightTarget":false,"aggDimKey":"Location","sourceDimension":null,"targetDimension":null,"fixedNodes":false}},{"type":"mapView","importJson":{"tileSets":[{"url":"https://maps.georeferencer.com/georeferences/506857276760/2019-08-27T02:05:07.548900Z/map/{z}/{x}/{y}.png?key=kMmpYUze8M0vPeSWBDjJ","wmsUrl":null,"wmsLayers":null,"mbId":null,"enabled":true,"description":null},{"url":null,"mbId":"cesta.hd9ak6ie","enabled":true,"description":"Land"}],"layers":[]}},{"type":"tableView","importJson":{"tableDimensions":[],"countDim":null,"maxDisplay":1000}},{"type":"listView","importJson":{"titleDim":"Location"}}]}